City_ID,City,Country,Date,Lat,Lng,Max Temp,Humidity,Cloudiness,Wind Speed,Current Description,Rain inches (last 3 hrs),Snow inches (last 3 hrs)
0,Ostrovnoy,RU,2020-02-24 01:41:23,68.05,39.51,26.56,92,100,9.4,overcast clouds,0.0,0.0
1,Shubarkuduk,KZ,2020-02-24 01:41:23,49.14,56.49,22.21,95,100,16.82,light snow,0.0,0.022047244094488192
2,Henderson,US,2020-02-24 01:41:23,36.04,-114.98,64.4,31,1,5.95,clear sky,0.0,0.0
3,Puerto Ayora,EC,2020-02-24 01:41:24,-0.74,-90.35,79.0,100,88,3.0,light rain,0.02716535433070866,0.0
4,Saint-Philippe,RE,2020-02-24 01:41:24,-21.36,55.77,75.2,69,19,6.93,few clouds,0.0,0.0
5,Busselton,AU,2020-02-24 01:41:24,-33.65,115.33,80.01,34,100,15.21,overcast clouds,0.0,0.0
6,Bredasdorp,ZA,2020-02-24 01:41:24,-34.53,20.04,63.0,81,0,5.82,clear sky,0.0,0.0
7,Kargil,IN,2020-02-24 01:41:24,34.57,76.1,-4.94,81,0,1.57,clear sky,0.0,0.0
8,Mahebourg,MU,2020-02-24 01:41:25,-20.41,57.7,73.99,94,20,3.36,few clouds,0.0,0.0
9,Larsnes,NO,2020-02-24 01:41:25,62.2,5.58,37.4,55,100,13.87,light snow,0.0,0.03464566929133858
10,Toledo,ES,2020-02-24 01:41:25,39.83,-4.0,48.99,84,0,2.77,clear sky,0.0,0.0
11,Proddatur,IN,2020-02-24 01:41:25,14.73,78.55,73.92,69,99,4.81,overcast clouds,0.0,0.0
12,Necochea,AR,2020-02-24 01:41:25,-38.55,-58.74,64.0,70,0,10.0,clear sky,0.0,0.0
13,Kambove,CD,2020-02-24 01:41:26,-10.88,26.6,63.01,97,100,8.12,overcast clouds,0.0,0.0
14,Narsaq,GL,2020-02-24 01:41:26,60.92,-46.05,23.0,67,100,13.87,snow,0.0,0.09370078740157481
15,Tyukhtet,RU,2020-02-24 01:41:26,56.54,89.3,13.19,94,67,2.73,broken clouds,0.0,0.0
16,Krasnoborsk,RU,2020-02-24 01:41:27,61.56,45.93,28.02,91,67,7.09,broken clouds,0.0,0.0
17,Havoysund,NO,2020-02-24 01:41:27,71.0,24.66,33.8,80,75,13.87,broken clouds,0.0,0.0
18,Cidreira,BR,2020-02-24 01:41:27,-30.18,-50.21,72.64,75,15,25.12,few clouds,0.0,0.0
19,Dikson,RU,2020-02-24 01:41:27,73.51,80.55,23.9,91,100,27.76,light snow,0.0,0.01968503937007874
20,Neftcala,AZ,2020-02-24 01:41:27,39.37,49.25,47.73,88,91,11.7,overcast clouds,0.0,0.0
21,East London,ZA,2020-02-24 01:41:28,-33.02,27.91,63.61,68,10,3.29,clear sky,0.0,0.0
22,Presidencia Roque Saenz Pena,AR,2020-02-24 01:38:46,-26.79,-60.44,62.53,68,0,0.43,clear sky,0.0,0.0
23,Saint Anthony,US,2020-02-24 01:41:28,45.02,-93.22,37.4,64,1,9.17,clear sky,0.0,0.0
24,Valparaiso,CL,2020-02-24 01:41:28,-33.04,-71.63,59.0,82,1,5.53,clear sky,0.0,0.0
25,Viedma,AR,2020-02-24 01:41:28,-40.81,-63.0,78.8,34,0,16.35,clear sky,0.0,0.0
26,Qaanaaq,GL,2020-02-24 01:41:29,77.48,-69.36,-17.82,59,0,6.38,clear sky,0.0,0.0
27,Alencon,FR,2020-02-24 01:41:29,48.43,0.08,51.8,100,90,6.93,overcast clouds,0.0,0.0
28,Muros,ES,2020-02-24 01:41:30,42.78,-9.06,54.0,100,40,1.12,fog,0.0,0.0
29,Ushuaia,AR,2020-02-24 01:37:02,-54.8,-68.3,44.6,70,40,20.8,shower rain,0.0,0.0
30,Hithadhoo,MV,2020-02-24 01:41:30,-0.6,73.08,83.39,79,78,13.49,light rain,0.007480314960629922,0.0
31,Witu,KE,2020-02-24 01:41:30,-2.39,40.44,79.92,85,54,5.7,broken clouds,0.0,0.0
32,Dingle,PH,2020-02-24 01:41:31,11.0,122.67,82.51,70,89,14.38,light rain,0.024803149606299216,0.0
33,Mombasa,KE,2020-02-24 01:41:31,-4.05,39.66,76.1,93,52,3.62,broken clouds,0.0,0.0
34,Washington,US,2020-02-24 01:41:00,47.5,-120.5,42.8,52,1,26.4,snow,0.0,0.0
35,Kibaya,TZ,2020-02-24 01:41:31,-5.3,36.57,61.92,98,100,4.54,overcast clouds,0.0,0.0
36,Najran,SA,2020-02-24 01:41:31,17.49,44.13,62.6,42,24,4.7,few clouds,0.0,0.0
37,Arraial Do Cabo,BR,2020-02-24 01:41:32,-22.97,-42.03,75.34,70,100,7.4,overcast clouds,0.0,0.0
38,Longyearbyen,SJ,2020-02-24 01:41:32,78.22,15.64,-5.8,83,40,4.7,scattered clouds,0.0,0.0
39,Marzuq,YE,2020-02-24 01:41:32,14.4,46.47,55.47,20,42,2.95,scattered clouds,0.0,0.0
40,Jamestown,US,2020-02-24 01:40:08,42.1,-79.24,46.4,33,90,10.29,overcast clouds,0.0,0.0
41,Penzance,GB,2020-02-24 01:41:33,50.12,-5.54,53.01,100,90,25.28,overcast clouds,0.0,0.0
42,Southampton,GB,2020-02-24 01:39:02,50.9,-1.4,46.0,100,100,6.93,light intensity drizzle,0.0,0.0
43,Jumla,NP,2020-02-24 01:41:33,29.27,82.18,37.47,41,48,2.91,scattered clouds,0.0,0.0
44,Vila Velha,BR,2020-02-24 01:41:33,-20.33,-40.29,75.2,73,75,5.82,broken clouds,0.0,0.0
45,Sabirabad,AZ,2020-02-24 01:41:34,40.01,48.48,44.6,100,90,9.17,mist,0.0,0.0
46,Talnakh,RU,2020-02-24 01:41:34,69.49,88.4,17.6,92,90,31.32,overcast clouds,0.0,0.0
47,Port Alfred,ZA,2020-02-24 01:41:34,-33.59,26.89,59.0,83,0,3.47,clear sky,0.0,0.0
48,Padang,ID,2020-02-24 01:41:34,-0.95,100.35,78.62,65,0,7.27,clear sky,0.0,0.0
49,Ust-Ishim,RU,2020-02-24 01:41:34,57.69,71.17,15.71,96,99,5.91,overcast clouds,0.0,0.0
50,Ponta Do Sol,PT,2020-02-24 01:41:35,32.67,-17.1,66.99,48,20,16.11,few clouds,0.0,0.0
51,Lebu,CL,2020-02-24 01:41:35,-37.62,-73.65,54.66,96,17,5.23,few clouds,0.0,0.0
52,Lukovetskiy,RU,2020-02-24 01:41:35,64.3,41.92,33.8,96,90,6.71,overcast clouds,0.0,0.0
53,Carpinis,RO,2020-02-24 01:41:35,45.79,20.9,50.0,61,100,3.36,light rain,0.00984251968503937,0.0
54,Punta Arenas,CL,2020-02-24 01:41:35,-53.15,-70.92,46.4,65,75,35.57,broken clouds,0.0,0.0
55,Marawi,PH,2020-02-24 01:41:36,8.0,124.29,80.01,79,0,5.01,clear sky,0.0,0.0
56,Kudahuvadhoo,MV,2020-02-24 01:41:36,2.67,72.89,82.99,77,55,17.09,broken clouds,0.0,0.0
57,Zaozerne,UA,2020-02-24 01:41:36,45.16,33.28,45.46,80,100,28.74,light rain,0.024803149606299216,0.0
58,Bud,US,2020-02-24 01:41:36,39.45,-86.18,48.2,56,40,5.82,scattered clouds,0.0,0.0
59,Dharchula,IN,2020-02-24 01:41:37,29.85,80.53,37.72,40,98,6.4,overcast clouds,0.0,0.0
60,Mehamn,NO,2020-02-24 01:41:37,71.04,27.85,30.81,84,100,7.83,light snow,0.0,0.005118110236220473
61,Qandala,SO,2020-02-24 01:41:37,11.47,49.87,72.25,76,69,3.09,broken clouds,0.0,0.0
62,Utete,TZ,2020-02-24 01:41:37,-7.99,38.76,74.57,97,28,1.48,scattered clouds,0.0,0.0
63,Tasiilaq,GL,2020-02-24 01:41:38,65.61,-37.64,8.6,71,0,3.36,clear sky,0.0,0.0
64,Sao Miguel Do Araguaia,BR,2020-02-24 01:41:38,-13.28,-50.16,74.17,89,100,0.89,overcast clouds,0.0,0.0
65,Hermanus,ZA,2020-02-24 01:41:38,-34.42,19.23,63.0,74,0,11.99,clear sky,0.0,0.0
66,Ribeira Grande,PT,2020-02-24 01:41:38,38.52,-28.7,55.54,84,87,7.36,overcast clouds,0.0,0.0
67,Ayagoz,KZ,2020-02-24 01:41:38,47.97,80.44,11.86,94,100,5.84,overcast clouds,0.0,0.0
68,Harrisonburg,US,2020-02-24 01:41:39,38.45,-78.87,46.4,44,90,4.03,overcast clouds,0.0,0.0
69,Codrington,AU,2020-02-24 01:41:39,-38.27,141.97,62.82,86,51,13.11,broken clouds,0.0,0.0
70,Mafeteng,LS,2020-02-24 01:41:39,-29.82,27.24,52.25,74,0,1.1,clear sky,0.0,0.0
71,Owando,CG,2020-02-24 01:41:39,-0.48,15.9,74.37,94,100,2.59,overcast clouds,0.0,0.0
72,Victoria,HK,2020-02-24 01:37:42,22.29,114.16,73.0,68,20,18.34,few clouds,0.0,0.0
73,Bambous Virieux,MU,2020-02-24 01:41:40,-20.34,57.76,73.99,94,20,3.36,few clouds,0.0,0.0
74,Skagen,DK,2020-02-24 01:41:40,57.72,10.58,42.01,78,0,1.99,clear sky,0.0,0.0
75,Ugoofaaru,MV,2020-02-24 01:41:40,5.67,73.0,83.16,77,54,17.81,light rain,0.00984251968503937,0.0
76,Vila Franca Do Campo,PT,2020-02-24 01:41:40,37.72,-25.43,55.4,93,20,4.7,few clouds,0.0,0.0
77,Cabedelo,BR,2020-02-24 01:41:41,-6.98,-34.83,82.4,78,20,10.29,few clouds,0.0,0.0
78,Upernavik,GL,2020-02-24 01:41:41,72.79,-56.15,-19.8,86,1,4.72,clear sky,0.0,0.0
79,Clyde River,CA,2020-02-24 01:41:41,70.47,-68.59,-20.2,75,40,16.11,light snow,0.0,0.0
80,Calabar,NG,2020-02-24 01:41:41,4.95,8.32,78.75,93,100,1.63,overcast clouds,0.0,0.0
81,Lumeje,AO,2020-02-24 01:41:42,-11.55,20.78,67.17,88,100,10.96,light rain,0.024803149606299216,0.0
82,Dulce Nombre De Culmi,HN,2020-02-24 01:41:42,15.1,-85.53,60.57,94,0,2.75,clear sky,0.0,0.0
83,Cape Town,ZA,2020-02-24 01:38:25,-33.93,18.42,64.0,59,0,18.34,clear sky,0.0,0.0
84,Laguna,US,2020-02-24 01:41:42,38.42,-121.42,64.99,55,1,5.82,clear sky,0.0,0.0
85,Sovetskiy,RU,2020-02-24 01:41:25,61.36,63.58,22.41,88,0,13.96,clear sky,0.0,0.0
86,Saldanha,ZA,2020-02-24 01:41:43,-33.01,17.94,64.4,55,0,5.82,clear sky,0.0,0.0
87,Araguacu,BR,2020-02-24 01:41:43,-12.93,-49.83,74.55,89,86,2.17,overcast clouds,0.0,0.0
88,Devrek,TR,2020-02-24 01:41:43,41.22,31.96,32.56,79,0,6.4,clear sky,0.0,0.0
89,Santa Isabel Do Rio Negro,BR,2020-02-24 01:41:43,-0.41,-65.02,77.18,87,64,2.04,broken clouds,0.0,0.0
90,Husavik,IS,2020-02-24 01:41:44,66.04,-17.34,26.02,92,100,6.04,light snow,0.0,0.03464566929133858
91,Port Hawkesbury,CA,2020-02-24 01:41:44,45.62,-61.35,35.6,64,1,10.29,clear sky,0.0,0.0
92,Castro,BR,2020-02-24 01:41:44,-24.79,-50.01,57.61,94,100,8.41,overcast clouds,0.0,0.0
93,Urucara,BR,2020-02-24 01:39:21,-2.54,-57.76,75.29,96,94,1.54,overcast clouds,0.0,0.0
94,Mocuba,MZ,2020-02-24 01:41:45,-16.84,36.99,73.27,98,100,2.93,overcast clouds,0.0,0.0
95,Mwandiga,TZ,2020-02-24 01:41:45,-4.83,29.66,75.2,94,40,4.76,scattered clouds,0.0,0.0
96,Krasnoarmeyskiy,RU,2020-02-24 01:41:45,47.01,42.21,39.0,87,100,16.51,light rain,0.012204724409448819,0.0
97,Torbay,CA,2020-02-24 01:41:45,47.67,-52.73,30.0,79,5,13.87,clear sky,0.0,0.0
98,Pangoa,PE,2020-02-24 01:41:46,-12.12,-73.0,66.92,99,6,1.32,clear sky,0.0,0.0
99,Edd,ER,2020-02-24 01:41:46,13.93,41.69,75.72,54,32,2.86,scattered clouds,0.0,0.0
100,Namibe,AO,2020-02-24 01:41:46,-15.2,12.15,73.06,77,83,5.59,broken clouds,0.0,0.0
101,Zaraza,VE,2020-02-24 01:41:46,9.35,-65.32,75.18,82,1,10.56,clear sky,0.0,0.0
102,Saint George,US,2020-02-24 01:39:28,37.1,-113.58,57.2,47,1,9.17,clear sky,0.0,0.0
103,Palmeiras De Goias,BR,2020-02-24 01:41:47,-16.8,-49.93,70.86,93,99,4.59,overcast clouds,0.0,0.0
104,Stratford-Upon-Avon,GB,2020-02-24 01:41:47,52.19,-1.71,45.0,75,100,4.7,light rain,0.03464566929133858,0.0
105,Akureyri,IS,2020-02-24 01:41:47,65.68,-18.09,20.46,87,100,8.66,light snow,0.0,0.005118110236220473
106,Luderitz,NA,2020-02-24 01:41:47,-26.65,15.16,73.24,49,0,7.23,clear sky,0.0,0.0
107,Sao Joao Da Barra,BR,2020-02-24 01:41:48,-21.64,-41.05,74.35,74,100,5.86,overcast clouds,0.0,0.0
108,Santiago,CL,2020-02-24 01:39:38,-33.46,-70.65,66.2,59,0,11.41,clear sky,0.0,0.0
109,Harper,LR,2020-02-24 01:41:48,4.38,-7.72,78.3,94,100,3.51,overcast clouds,0.0,0.0
110,Miragoane,HT,2020-02-24 01:41:48,18.44,-73.09,78.44,71,0,4.07,light rain,0.03188976377952756,0.0
111,Huambo,AO,2020-02-24 01:41:49,-12.78,15.74,59.95,97,95,3.91,overcast clouds,0.0,0.0
112,Moose Factory,CA,2020-02-24 01:41:49,51.26,-80.61,17.6,72,90,11.41,overcast clouds,0.0,0.0
113,Topchikha,RU,2020-02-24 01:41:49,52.82,83.12,19.4,92,40,4.47,scattered clouds,0.0,0.0
114,Krasnyy Luch,UA,2020-02-24 01:41:49,48.14,38.94,35.92,97,100,16.96,light rain,0.05905511811023623,0.0
115,Paamiut,GL,2020-02-24 01:41:49,61.99,-49.67,14.38,89,99,12.8,light snow,0.0,0.00984251968503937
116,Havre-Saint-Pierre,CA,2020-02-24 01:41:50,50.23,-63.6,26.6,100,90,4.29,fog,0.0,0.0
117,Port Elizabeth,ZA,2020-02-24 01:41:50,-33.92,25.57,53.6,87,22,2.24,few clouds,0.0,0.0
118,Tocopilla,CL,2020-02-24 01:41:50,-22.09,-70.2,60.89,56,29,3.62,scattered clouds,0.0,0.0
119,Port Blair,IN,2020-02-24 01:41:51,11.67,92.75,81.72,74,38,13.73,scattered clouds,0.0,0.0
120,Trinidad,BO,2020-02-24 01:41:51,-14.83,-64.9,66.96,71,35,1.9,scattered clouds,0.0,0.0
121,Cayenne,GF,2020-02-24 01:40:06,4.93,-52.33,80.6,78,75,8.05,broken clouds,0.0,0.0
122,Do Gonbadan,IR,2020-02-24 01:41:51,30.36,50.8,53.6,76,100,3.53,overcast clouds,0.0,0.0
123,Farah,AF,2020-02-24 01:41:51,32.5,62.5,56.73,58,0,2.98,clear sky,0.0,0.0
124,Kattivakkam,IN,2020-02-24 01:41:52,13.22,80.32,79.0,88,40,2.24,mist,0.0,0.0
125,Chuy,UY,2020-02-24 01:41:52,-33.7,-53.46,63.9,74,52,10.13,broken clouds,0.0,0.0
126,Taipu,BR,2020-02-24 01:41:52,-5.62,-35.6,82.4,83,40,5.82,scattered clouds,0.0,0.0
127,Santa Cruz Do Rio Pardo,BR,2020-02-24 01:41:52,-22.9,-49.63,62.24,90,3,12.06,clear sky,0.0,0.0
128,Cicero Dantas,BR,2020-02-24 01:41:52,-10.6,-38.38,73.27,89,6,7.76,clear sky,0.0,0.0
129,Burgeo,CA,2020-02-24 01:41:53,47.62,-57.62,31.64,86,0,3.83,clear sky,0.0,0.0
130,Boende,CD,2020-02-24 01:41:53,-0.22,20.87,72.64,95,100,3.53,overcast clouds,0.0,0.0
131,Kinango,KE,2020-02-24 01:41:53,-4.14,39.32,76.1,93,52,3.62,broken clouds,0.0,0.0
132,Souillac,MU,2020-02-24 01:41:53,-20.52,57.52,73.99,94,20,3.36,few clouds,0.0,0.0
133,Sheltozero,RU,2020-02-24 01:41:53,61.37,35.37,32.77,91,100,13.24,overcast clouds,0.0,0.0
134,Zaranj,AF,2020-02-24 01:41:54,30.97,61.88,60.15,47,0,10.85,clear sky,0.0,0.0
135,Maceio,BR,2020-02-24 01:40:23,-9.67,-35.74,78.8,88,40,2.24,scattered clouds,0.0,0.0
136,Itaueira,BR,2020-02-24 01:40:44,-7.6,-43.03,74.52,92,88,2.55,overcast clouds,0.0,0.0
137,Hambantota,LK,2020-02-24 01:41:54,6.12,81.12,75.2,100,20,8.05,few clouds,0.0,0.0
138,Georgetown,MY,2020-02-24 01:41:55,5.41,100.34,82.4,78,20,2.24,few clouds,0.0,0.0
139,Goderich,CA,2020-02-24 01:41:55,43.75,-81.72,41.0,74,0,18.99,clear sky,0.0,0.0
140,Itapicuru,BR,2020-02-24 01:41:55,-11.32,-38.23,75.49,88,28,7.18,scattered clouds,0.0,0.0
141,Santiago Del Estero,AR,2020-02-24 01:41:55,-27.8,-64.26,65.82,51,0,6.26,clear sky,0.0,0.0
142,Blind River,CA,2020-02-24 01:41:56,46.18,-82.96,33.8,74,1,12.15,clear sky,0.0,0.0
143,Hatillo,PR,2020-02-24 01:41:56,18.49,-66.83,75.99,84,75,4.94,broken clouds,0.0,0.0
144,Macia,MZ,2020-02-24 01:41:56,-25.03,33.1,66.94,84,81,8.14,light rain,0.012204724409448819,0.0
145,Oum Hadjer,TD,2020-02-24 01:41:57,13.3,19.7,65.95,23,0,15.28,clear sky,0.0,0.0
146,Kralendijk,BQ,2020-02-24 01:40:07,12.15,-68.27,78.8,69,47,8.05,scattered clouds,0.0,0.0
147,Marathon,US,2020-02-24 01:38:34,44.9,-89.77,42.8,55,1,9.17,clear sky,0.0,0.0
148,Derzhavinsk,KZ,2020-02-24 01:41:57,51.1,66.32,6.78,92,0,8.03,clear sky,0.0,0.0
149,Saint-Pierre,RE,2020-02-24 01:40:42,-21.34,55.48,73.99,73,0,5.82,clear sky,0.0,0.0
150,Santa Rosa,PH,2020-02-24 01:41:58,14.31,121.11,86.0,69,40,8.05,scattered clouds,0.0,0.0
151,Kaka,TM,2020-02-24 01:41:58,37.35,59.61,50.11,68,0,7.09,clear sky,0.0,0.0
152,Gat,IL,2020-02-24 01:39:01,31.61,34.76,51.8,87,75,5.82,broken clouds,0.0,0.0
153,Asifabad,IN,2020-02-24 01:41:58,19.37,79.28,75.0,61,0,9.98,clear sky,0.0,0.0
154,Rio Gallegos,AR,2020-02-24 01:41:59,-51.62,-69.22,55.4,50,40,12.75,scattered clouds,0.0,0.0
155,Cumana,VE,2020-02-24 01:41:59,10.46,-64.18,80.6,83,26,13.87,scattered clouds,0.0,0.0
156,Lodja,CD,2020-02-24 01:41:59,-3.48,23.43,70.2,98,100,2.04,overcast clouds,0.0,0.0
157,Benghazi,LY,2020-02-24 01:40:16,32.12,20.07,56.86,64,28,16.73,scattered clouds,0.0,0.0
158,Hamilton,US,2020-02-24 01:42:00,39.18,-84.53,46.4,45,40,6.6,scattered clouds,0.0,0.0
159,Sao Filipe,CV,2020-02-24 01:42:00,14.9,-24.5,67.93,81,25,9.62,scattered clouds,0.0,0.0
160,Itarema,BR,2020-02-24 01:42:00,-2.92,-39.92,75.42,96,4,3.02,clear sky,0.0,0.0
161,San Ramon,US,2020-02-24 01:37:54,37.78,-121.98,63.0,48,1,6.93,clear sky,0.0,0.0
162,Paracuru,BR,2020-02-24 01:42:00,-3.41,-39.03,80.6,88,40,2.24,scattered clouds,0.0,0.0
163,Aksarka,RU,2020-02-24 01:42:01,66.56,67.8,25.88,90,100,23.89,overcast clouds,0.0,0.0
164,Ilulissat,GL,2020-02-24 01:42:01,69.22,-51.1,1.4,70,100,10.29,overcast clouds,0.0,0.0
165,Ormond Beach,US,2020-02-24 01:42:01,29.29,-81.06,64.0,87,1,6.82,clear sky,0.0,0.0
166,Ancud,CL,2020-02-24 01:42:01,-41.87,-73.82,51.8,76,40,8.05,scattered clouds,0.0,0.0
167,Birao,CF,2020-02-24 01:42:02,10.28,22.79,68.11,17,0,10.22,clear sky,0.0,0.0
168,Mazagao,BR,2020-02-24 01:42:02,-0.12,-51.29,82.4,100,40,8.05,scattered clouds,0.0,0.0
169,Coquimbo,CL,2020-02-24 01:42:02,-29.95,-71.34,60.8,82,75,6.93,broken clouds,0.0,0.0
170,Mar Del Plata,AR,2020-02-24 01:39:49,-38.0,-57.56,68.0,82,0,6.93,clear sky,0.0,0.0
171,Bubaque,GW,2020-02-24 01:42:02,11.28,-15.83,79.74,64,88,15.39,overcast clouds,0.0,0.0
172,Praia Da Vitoria,PT,2020-02-24 01:42:03,38.73,-27.07,57.2,87,40,6.11,scattered clouds,0.0,0.0
173,Maun,BW,2020-02-24 01:42:03,-19.98,23.42,69.8,94,75,8.05,broken clouds,0.0,0.0
174,Buncrana,IE,2020-02-24 01:42:03,55.13,-7.45,32.74,99,100,16.58,snow,0.0,0.2240157480314961
175,Krasnofarfornyy,RU,2020-02-24 01:42:03,59.14,31.85,34.54,88,100,8.81,light snow,0.0,0.005118110236220473
176,Amapa,BR,2020-02-24 01:42:04,1.0,-52.0,73.62,99,100,3.71,overcast clouds,0.0,0.0
177,Beira,MZ,2020-02-24 01:40:41,-19.84,34.84,77.0,100,90,10.29,light rain,0.0,0.0
178,Wukari,NG,2020-02-24 01:42:04,7.85,9.78,78.49,14,30,9.13,scattered clouds,0.0,0.0
179,Dudinka,RU,2020-02-24 01:42:04,69.41,86.18,17.6,92,90,31.32,overcast clouds,0.0,0.0
180,Doha,QA,2020-02-24 01:41:18,25.29,51.53,70.0,88,100,5.82,overcast clouds,0.0,0.0
181,Toro,CO,2020-02-24 01:42:05,4.61,-76.08,73.4,94,75,1.39,shower rain,0.0,0.0
182,Vardo,NO,2020-02-24 01:42:05,70.37,31.11,33.85,85,100,13.98,light snow,0.0,0.00984251968503937
183,Ginda,IN,2020-02-24 01:42:05,30.69,78.49,48.27,56,2,3.6,clear sky,0.0,0.0
184,Balkhash,KZ,2020-02-24 01:42:05,46.84,74.98,7.47,88,0,12.55,clear sky,0.0,0.0
185,Qunduz,AF,2020-02-24 01:42:05,36.73,68.86,52.34,63,100,4.56,overcast clouds,0.0,0.0
186,Caravelas,BR,2020-02-24 01:42:06,-17.71,-39.25,79.81,85,63,13.58,light rain,0.07637795275590552,0.0
187,Olafsvik,IS,2020-02-24 01:42:06,64.89,-23.71,33.35,94,100,10.22,snow,0.0,0.08858267716535434
188,Umm Kaddadah,SD,2020-02-24 01:39:15,13.6,26.69,62.47,25,0,13.94,clear sky,0.0,0.0
189,Puerto Ayacucho,VE,2020-02-24 01:42:07,5.66,-67.62,89.6,46,100,4.7,overcast clouds,0.0,0.0
190,Zandvoort,NL,2020-02-24 01:42:07,52.37,4.53,44.6,86,20,9.17,few clouds,0.0,0.0
191,Hofn,IS,2020-02-24 01:42:07,64.25,-15.21,40.01,75,100,31.09,light snow,0.0,0.014960629921259844
192,Kalmunai,LK,2020-02-24 01:42:07,7.42,81.82,80.47,80,100,15.75,light rain,0.005118110236220473,0.0
193,Terekli-Mekteb,RU,2020-02-24 01:42:07,44.17,45.87,37.49,81,26,5.28,scattered clouds,0.0,0.0
194,Sao Felix Do Xingu,BR,2020-02-24 01:42:08,-6.64,-51.99,72.37,97,100,2.06,overcast clouds,0.0,0.0
195,Saint-Augustin,CA,2020-02-24 01:42:08,51.23,-58.65,11.97,80,37,6.24,scattered clouds,0.0,0.0
196,Mandaguacu,BR,2020-02-24 01:42:08,-23.35,-52.1,75.2,69,1,11.41,clear sky,0.0,0.0
197,Synya,RU,2020-02-24 01:42:08,65.37,58.04,27.16,88,100,17.09,light snow,0.0,0.012204724409448819
198,Raudeberg,NO,2020-02-24 01:42:08,61.99,5.14,35.6,69,100,6.93,light snow,0.0,0.012204724409448819
199,Leeds,GB,2020-02-24 01:38:58,53.8,-1.55,39.99,86,100,3.36,light snow,0.0,0.03188976377952756
200,Rafsanjan,IR,2020-02-24 01:42:09,30.41,55.99,52.45,32,32,6.29,scattered clouds,0.0,0.0
201,Nanortalik,GL,2020-02-24 01:42:09,60.14,-45.24,27.36,81,100,5.79,light snow,0.0,0.03700787401574803
202,Zhezkazgan,KZ,2020-02-24 01:39:01,47.8,67.71,5.0,92,90,6.71,overcast clouds,0.0,0.0
203,Mafinga,TZ,2020-02-24 01:42:09,-7.25,35.07,67.73,96,100,1.07,overcast clouds,0.0,0.0
204,Yanam,IN,2020-02-24 01:42:10,16.73,82.22,68.0,94,20,2.24,mist,0.0,0.0
205,Kalghatgi,IN,2020-02-24 01:42:10,15.18,74.97,74.44,53,1,10.56,clear sky,0.0,0.0
206,Tacuarembo,UY,2020-02-24 01:42:10,-31.73,-55.98,60.19,75,0,5.55,clear sky,0.0,0.0
207,Valdivia,CL,2020-02-24 01:42:10,-39.81,-73.25,57.2,87,11,2.24,few clouds,0.0,0.0
208,Bathsheba,BB,2020-02-24 01:42:10,13.22,-59.52,80.6,78,40,14.99,scattered clouds,0.0,0.0
209,Takestan,IR,2020-02-24 01:42:11,36.07,49.7,41.0,75,100,4.7,overcast clouds,0.0,0.0
210,Kaoma,ZM,2020-02-24 01:42:11,-14.78,24.8,65.62,98,100,4.05,light rain,0.10354330708661418,0.0
211,Margate,GB,2020-02-24 01:41:36,51.38,1.39,46.4,81,100,9.17,light rain,0.0,0.0
212,Saquena,PE,2020-02-24 01:42:11,-4.67,-73.52,73.51,95,100,0.96,overcast clouds,0.0,0.0
213,Tanout,NE,2020-02-24 01:42:12,14.97,8.89,64.71,18,0,16.35,clear sky,0.0,0.0
214,Andilamena,MG,2020-02-24 01:42:12,-17.02,48.58,66.74,99,90,3.76,overcast clouds,0.0,0.0
215,Canto Do Buriti,BR,2020-02-24 01:42:12,-8.11,-42.94,73.04,94,60,1.3,broken clouds,0.0,0.0
216,Weligama,LK,2020-02-24 01:42:12,5.97,80.42,80.08,67,100,6.6,overcast clouds,0.0,0.0
217,Lima,PE,2020-02-24 01:41:30,-12.04,-77.03,77.0,78,35,11.41,scattered clouds,0.0,0.0
218,Beloha,MG,2020-02-24 01:42:13,-25.17,45.05,74.25,90,61,3.78,broken clouds,0.0,0.0
219,Normandin,CA,2020-02-24 01:42:13,48.83,-72.53,28.0,73,20,3.36,few clouds,0.0,0.0
220,Gao,ML,2020-02-24 01:42:13,16.64,1.64,72.93,15,0,19.1,clear sky,0.0,0.0
221,Nieuw Amsterdam,SR,2020-02-24 01:42:13,5.88,-55.08,78.01,94,20,3.36,few clouds,0.0,0.0
222,Miracema Do Tocantins,BR,2020-02-24 01:42:13,-9.56,-48.4,75.29,91,98,0.85,overcast clouds,0.0,0.0
223,Biltine,TD,2020-02-24 01:42:14,14.53,20.92,61.23,27,0,10.78,clear sky,0.0,0.0
224,Kautokeino,NO,2020-02-24 01:42:14,69.01,23.04,25.32,87,100,11.79,overcast clouds,0.0,0.0
225,Salinas,US,2020-02-24 01:42:14,36.68,-121.66,59.0,67,1,9.17,clear sky,0.0,0.0
226,Jumilla,ES,2020-02-24 01:42:14,38.48,-1.32,48.0,81,0,6.93,clear sky,0.0,0.0
227,Anloga,GH,2020-02-24 01:42:15,5.79,0.9,84.2,89,40,10.29,scattered clouds,0.0,0.0
228,Tabou,CI,2020-02-24 01:42:15,4.42,-7.35,78.3,94,100,3.51,overcast clouds,0.0,0.0
229,Adrar,MR,2020-02-24 01:42:15,20.5,-10.07,80.35,10,100,11.56,overcast clouds,0.0,0.0
230,Honningsvag,NO,2020-02-24 01:42:16,70.98,25.97,35.87,90,100,15.08,light snow,0.0,0.029527559055118113
231,Mao,ES,2020-02-24 01:42:16,39.89,4.27,51.8,93,0,3.36,fog,0.0,0.0
232,Waw,SS,2020-02-24 01:42:16,7.7,28.0,69.89,15,0,4.05,clear sky,0.0,0.0
233,Shumikha,RU,2020-02-24 01:42:16,55.23,63.3,9.41,97,84,11.65,broken clouds,0.0,0.0
234,Grindavik,IS,2020-02-24 01:42:17,63.84,-22.43,35.6,67,75,20.8,shower rain,0.0,0.0
235,Pushkar,IN,2020-02-24 01:42:17,26.5,74.55,65.75,55,0,5.23,clear sky,0.0,0.0
236,Rosetta,EG,2020-02-24 01:42:17,31.4,30.42,54.3,71,100,1.79,overcast clouds,0.0,0.0
237,Cherepovets,RU,2020-02-24 01:37:26,59.13,37.9,33.01,97,100,11.36,light snow,0.0,0.029527559055118113
238,Makat,KZ,2020-02-24 01:42:17,47.65,53.35,38.79,97,100,7.47,light rain,0.024803149606299216,0.0
239,Chalette-Sur-Loing,FR,2020-02-24 01:42:18,48.01,2.74,52.0,93,90,12.75,overcast clouds,0.0,0.0
240,Kamenka,RU,2020-02-24 01:42:18,51.32,42.77,34.0,97,82,1.01,broken clouds,0.0,0.0
241,Kayanga,TZ,2020-02-24 01:42:18,-1.53,31.15,65.97,87,100,2.44,light rain,0.01968503937007874,0.0
242,Uruguaiana,BR,2020-02-24 01:42:18,-29.75,-57.09,68.0,77,0,2.24,clear sky,0.0,0.0
243,Mandera,KE,2020-02-24 01:42:18,3.94,41.87,69.01,21,64,4.0,broken clouds,0.0,0.0
244,Emba,KZ,2020-02-24 01:42:19,48.83,58.14,15.35,92,86,8.79,overcast clouds,0.0,0.0
245,Mecca,SA,2020-02-24 01:42:19,21.43,39.83,67.86,69,62,0.98,broken clouds,0.0,0.0
246,Tres Arroyos,AR,2020-02-24 01:42:19,-38.37,-60.28,70.61,29,0,16.51,clear sky,0.0,0.0
247,Sao Jose Da Coroa Grande,BR,2020-02-24 01:42:19,-8.9,-35.15,81.88,78,66,12.08,light rain,0.007480314960629922,0.0
248,Scarborough,GB,2020-02-24 01:39:58,54.28,-0.4,39.2,80,100,5.82,overcast clouds,0.0,0.0
249,Camana,PE,2020-02-24 01:42:20,-16.62,-72.71,69.35,80,58,2.98,broken clouds,0.0,0.0
250,Vagur,FO,2020-02-24 01:42:20,61.47,-6.81,41.72,61,67,16.82,broken clouds,0.0,0.0
251,Kruisfontein,ZA,2020-02-24 01:42:20,-34.0,24.73,53.42,86,0,5.1,clear sky,0.0,0.0
252,Jurbarkas,LT,2020-02-24 01:42:20,55.08,22.77,35.33,90,80,11.68,broken clouds,0.0,0.0
253,Kasongo-Lunda,CD,2020-02-24 01:42:21,-6.47,16.82,69.08,96,100,1.36,overcast clouds,0.0,0.0
254,Visnes,NO,2020-02-24 01:41:04,59.36,5.22,39.99,69,42,13.87,light rain,0.01968503937007874,0.0
255,Antalaha,MG,2020-02-24 01:42:21,-14.9,50.28,78.22,86,100,3.02,light rain,0.03700787401574803,0.0
256,Killybegs,IE,2020-02-24 01:37:22,54.63,-8.45,33.01,93,100,15.01,moderate rain,0.4011811023622047,0.0
257,Vyartsilya,RU,2020-02-24 01:42:21,62.18,30.69,27.82,95,50,6.35,scattered clouds,0.0,0.0
258,Birjand,IR,2020-02-24 01:42:22,32.87,59.22,35.6,64,54,4.7,broken clouds,0.0,0.0
259,Guatire,VE,2020-02-24 01:42:22,10.48,-66.54,72.0,98,90,5.82,light rain,0.00984251968503937,0.0
260,Port-Gentil,GA,2020-02-24 01:42:22,-0.72,8.78,81.93,79,100,10.94,overcast clouds,0.0,0.0
261,Oistins,BB,2020-02-24 01:42:22,13.07,-59.53,80.6,78,40,14.99,scattered clouds,0.0,0.0
262,Marienburg,PL,2020-02-24 01:42:22,54.04,19.03,39.0,86,75,26.4,light intensity shower rain,0.0,0.0
263,Ciro Marina,IT,2020-02-24 01:41:00,39.37,17.13,46.4,65,0,3.36,clear sky,0.0,0.0
264,Bandarbeyla,SO,2020-02-24 01:42:23,9.49,50.81,77.14,76,96,16.13,overcast clouds,0.0,0.0
265,Nouadhibou,MR,2020-02-24 01:42:23,20.93,-17.03,69.8,73,95,8.05,light rain,0.0,0.0
266,Severnoye,RU,2020-02-24 01:42:23,56.35,78.36,19.4,94,100,3.69,overcast clouds,0.0,0.0
267,Westport,US,2020-02-24 01:41:29,41.14,-73.36,45.0,56,1,4.7,clear sky,0.0,0.0
268,Klaksvik,FO,2020-02-24 01:42:24,62.23,-6.59,35.6,74,59,12.75,broken clouds,0.0,0.0
269,Abu Samrah,SY,2020-02-24 01:42:24,35.3,37.18,47.75,79,40,7.11,scattered clouds,0.0,0.0
270,Havelock,US,2020-02-24 01:39:02,34.88,-76.9,46.4,80,1,3.33,clear sky,0.0,0.0
271,Mayumba,GA,2020-02-24 01:42:25,-3.43,10.66,81.55,77,100,4.76,overcast clouds,0.0,0.0
272,Lokosovo,RU,2020-02-24 01:42:25,61.13,74.82,17.8,94,100,9.48,overcast clouds,0.0,0.0
273,Huarmey,PE,2020-02-24 01:42:25,-10.07,-78.15,75.0,66,100,3.51,overcast clouds,0.0,0.0
274,Ust-Kulom,RU,2020-02-24 01:42:26,61.69,53.69,24.78,92,100,13.78,light snow,0.0,0.024803149606299216
275,Sorland,NO,2020-02-24 01:42:26,67.67,12.69,34.41,55,100,27.96,light snow,0.0,0.014960629921259844
276,Nouakchott,MR,2020-02-24 01:42:26,18.09,-15.98,73.4,64,100,9.17,light rain,0.0,0.0
277,San Jose,US,2020-02-24 01:39:52,37.34,-121.89,62.01,62,40,9.17,scattered clouds,0.0,0.0
278,Cockburn Town,TC,2020-02-24 01:42:26,21.46,-71.14,73.67,66,0,16.26,clear sky,0.0,0.0
279,Inta,RU,2020-02-24 01:42:27,66.03,60.17,21.92,84,100,11.12,overcast clouds,0.0,0.0
280,Marystown,CA,2020-02-24 01:42:27,47.17,-55.15,30.4,85,0,8.81,clear sky,0.0,0.0
281,Kostomuksha,RU,2020-02-24 01:42:27,64.57,30.58,24.39,88,94,12.19,overcast clouds,0.0,0.0
282,Tunceli,TR,2020-02-24 01:42:08,39.11,39.55,33.8,78,69,4.7,mist,0.0,0.0
283,Talara,PE,2020-02-24 01:42:27,-4.58,-81.27,77.11,85,81,8.52,broken clouds,0.0,0.0
284,Sabang,ID,2020-02-24 01:42:28,5.89,95.32,82.27,77,8,24.63,clear sky,0.0,0.0
285,Dor Marunt,RO,2020-02-24 01:42:28,44.45,26.92,52.0,52,100,14.99,overcast clouds,0.0,0.0
286,Iqaluit,CA,2020-02-24 01:42:28,63.75,-68.51,-27.0,67,20,9.17,few clouds,0.0,0.0
287,Glencoe,ZA,2020-02-24 01:42:28,-28.18,30.15,46.4,95,98,1.32,overcast clouds,0.0,0.0
288,Sur,OM,2020-02-24 01:42:29,22.57,59.53,70.81,56,67,2.95,broken clouds,0.0,0.0
289,Salalah,OM,2020-02-24 01:42:29,17.02,54.09,75.2,69,40,4.7,scattered clouds,0.0,0.0
290,Luena,AO,2020-02-24 01:42:30,-11.78,19.92,64.85,98,100,4.09,light rain,0.10354330708661418,0.0
291,Saint-Georges,GD,2020-02-24 01:42:30,12.06,-61.75,78.8,83,40,9.17,scattered clouds,0.0,0.0
292,Basingstoke,GB,2020-02-24 01:39:45,51.26,-1.09,46.0,93,100,3.36,light rain,0.0,0.0
293,Henties Bay,NA,2020-02-24 01:42:30,-22.12,14.28,64.0,94,100,5.01,overcast clouds,0.0,0.0
294,Lubango,AO,2020-02-24 01:40:27,-14.92,13.49,58.21,92,79,6.24,broken clouds,0.0,0.0
295,Wawa,NG,2020-02-24 01:42:31,9.9,4.42,77.49,29,0,5.57,clear sky,0.0,0.0
296,Susangerd,IR,2020-02-24 01:42:31,31.56,48.18,62.6,67,100,2.24,overcast clouds,0.0,0.0
297,Chapais,CA,2020-02-24 01:38:05,49.78,-74.85,28.4,79,90,11.41,overcast clouds,0.0,0.0
298,Abha,SA,2020-02-24 01:42:32,18.22,42.51,59.0,82,14,5.82,few clouds,0.0,0.0
299,Narsipatnam,IN,2020-02-24 01:42:32,17.67,82.62,68.0,94,20,2.24,mist,0.0,0.0
300,Ambo,PE,2020-02-24 01:42:32,-10.13,-76.2,48.85,97,97,4.79,light rain,0.005118110236220473,0.0
301,Salta,AR,2020-02-24 01:42:32,-24.79,-65.41,66.2,93,0,3.36,clear sky,0.0,0.0
302,Nizhniy Baskunchak,RU,2020-02-24 01:42:32,48.22,46.83,36.77,87,100,14.58,overcast clouds,0.0,0.0
303,Portree,GB,2020-02-24 01:42:33,57.41,-6.19,39.0,83,100,7.0,overcast clouds,0.0,0.0
304,Yarkovo,RU,2020-02-24 01:42:33,57.4,67.08,13.46,94,66,8.48,broken clouds,0.0,0.0
305,Junqueiro,BR,2020-02-24 01:42:33,-9.93,-36.48,76.82,87,97,6.29,overcast clouds,0.0,0.0
306,Zdvinsk,RU,2020-02-24 01:42:33,54.7,78.66,10.51,97,88,4.18,overcast clouds,0.0,0.0
307,Ierapetra,GR,2020-02-24 01:42:34,35.01,25.74,52.0,71,40,11.41,scattered clouds,0.0,0.0
308,Batangafo,CF,2020-02-24 01:42:34,7.3,18.28,71.01,20,10,4.25,clear sky,0.0,0.0
309,Dhidhdhoo,MV,2020-02-24 01:42:34,6.88,73.1,82.44,72,37,9.82,scattered clouds,0.0,0.0
310,Palma,ES,2020-02-24 01:42:34,39.57,2.65,50.0,87,0,3.36,clear sky,0.0,0.0
311,Kimovsk,RU,2020-02-24 01:42:34,53.97,38.53,26.46,93,1,9.89,clear sky,0.0,0.0
312,Shupiyan,IN,2020-02-24 01:42:35,33.72,74.83,28.62,75,21,6.33,few clouds,0.0,0.0
313,Monroe,US,2020-02-24 01:38:27,43.15,-77.68,44.6,41,75,5.82,broken clouds,0.0,0.0
314,Upata,VE,2020-02-24 01:42:35,8.01,-62.4,73.17,87,42,4.85,scattered clouds,0.0,0.0
315,Ampanihy,MG,2020-02-24 01:42:35,-24.7,44.75,73.99,88,100,3.51,overcast clouds,0.0,0.0
316,Kedrovyy,RU,2020-02-24 01:42:36,56.17,91.82,12.2,85,40,1.97,light snow,0.0,0.0
317,Ilo,PE,2020-02-24 01:42:36,-17.64,-71.34,73.44,90,18,4.52,few clouds,0.0,0.0
318,Ushtobe,KZ,2020-02-24 01:42:36,45.25,77.98,33.73,81,93,3.09,overcast clouds,0.0,0.0
319,Kalemie,CD,2020-02-24 01:38:12,-5.95,29.19,66.81,97,100,6.02,light rain,0.029527559055118113,0.0
320,Bardiyah,LY,2020-02-24 01:42:36,31.76,25.09,55.81,69,18,18.43,light rain,0.02716535433070866,0.0
321,Boca Do Acre,BR,2020-02-24 01:42:37,-8.75,-67.4,74.61,89,100,1.72,overcast clouds,0.0,0.0
322,Desaguadero,PE,2020-02-24 01:42:37,-16.57,-69.04,50.22,76,100,5.64,light rain,0.10590551181102363,0.0
323,Bandiagara,ML,2020-02-24 01:42:37,14.35,-3.61,78.49,11,0,14.45,clear sky,0.0,0.0
324,Nieuw Nickerie,SR,2020-02-24 01:42:37,5.95,-56.98,78.84,85,14,16.89,few clouds,0.0,0.0
325,Sokoni,TZ,2020-02-24 01:42:38,-6.43,39.55,84.2,83,20,5.82,few clouds,0.0,0.0
326,Rio Grande,BR,2020-02-24 01:39:28,-32.03,-52.1,67.98,76,0,13.82,clear sky,0.0,0.0
327,Kikwit,CD,2020-02-24 01:42:38,-5.04,18.82,72.09,88,100,0.87,overcast clouds,0.0,0.0
328,Kolokani,ML,2020-02-24 01:42:39,13.57,-8.03,77.7,13,69,13.31,broken clouds,0.0,0.0
329,Ventspils,LV,2020-02-24 01:42:39,57.39,21.56,41.0,93,0,13.87,clear sky,0.0,0.0
330,Depalpur,IN,2020-02-24 01:42:39,22.85,75.55,68.0,68,20,3.36,mist,0.0,0.0
331,Saint-Leu,RE,2020-02-24 01:42:39,-21.15,55.28,75.2,69,2,6.93,clear sky,0.0,0.0
332,Wad Madani,SD,2020-02-24 01:42:40,14.4,33.52,66.11,19,0,11.7,clear sky,0.0,0.0
333,Hun,LY,2020-02-24 01:38:33,29.13,15.95,47.12,79,0,5.32,clear sky,0.0,0.0
334,Berlevag,NO,2020-02-24 01:41:26,70.86,29.09,35.55,79,100,11.65,light snow,0.0,0.005118110236220473
335,San Joaquin,VE,2020-02-24 01:42:41,10.26,-67.79,74.21,89,91,7.54,light rain,0.005118110236220473,0.0
336,Damietta,EG,2020-02-24 01:42:41,31.42,31.81,58.32,67,100,9.84,light rain,0.09370078740157481,0.0
337,Petauke,ZM,2020-02-24 01:42:41,-14.24,31.33,69.12,96,100,8.93,moderate rain,0.15275590551181104,0.0
338,Charlestown,AU,2020-02-24 01:38:06,-32.95,151.67,82.0,61,75,10.29,broken clouds,0.0,0.0
339,Diamantino,BR,2020-02-24 01:42:42,-14.41,-56.45,72.5,97,100,3.94,moderate rain,0.14291338582677166,0.0
340,Grootfontein,NA,2020-02-24 01:42:42,-19.57,18.12,63.88,89,100,4.61,overcast clouds,0.0,0.0
341,Bara,NG,2020-02-24 01:42:42,10.37,10.73,67.06,21,0,8.25,clear sky,0.0,0.0
342,Kanniyakumari,IN,2020-02-24 01:42:42,8.08,77.57,79.92,77,100,28.9,overcast clouds,0.0,0.0
343,Tabuk,PH,2020-02-24 01:42:42,17.42,121.44,80.08,69,70,0.85,broken clouds,0.0,0.0
344,Kavaratti,IN,2020-02-24 01:42:43,10.57,72.64,82.06,72,77,7.96,broken clouds,0.0,0.0
345,Plast,RU,2020-02-24 01:42:43,54.37,60.81,17.67,93,100,12.59,overcast clouds,0.0,0.0
346,Coihaique,CL,2020-02-24 01:42:43,-45.58,-72.07,55.4,50,39,3.36,scattered clouds,0.0,0.0
347,Skjervoy,NO,2020-02-24 01:42:43,70.03,20.97,32.65,96,100,24.52,snow,0.0,0.15984251968503937
348,Saryozek,KZ,2020-02-24 01:42:44,44.36,77.98,32.31,92,100,2.77,overcast clouds,0.0,0.0
349,Orumiyeh,IR,2020-02-24 01:42:44,37.55,45.08,35.6,93,75,4.9,mist,0.0,0.0
350,Chinhoyi,ZW,2020-02-24 01:40:52,-17.37,30.2,65.7,94,100,9.13,moderate rain,0.14291338582677166,0.0
351,Kulhudhuffushi,MV,2020-02-24 01:42:44,6.62,73.07,83.17,76,32,15.35,scattered clouds,0.0,0.0
352,Kashi,CN,2020-02-24 01:42:44,39.45,75.98,33.8,31,80,8.95,broken clouds,0.0,0.0
353,Chipinge,ZW,2020-02-24 01:42:45,-20.19,32.62,63.64,96,100,6.89,light rain,0.0688976377952756,0.0
354,Duayaw Nkwanta,GH,2020-02-24 01:42:45,7.17,-2.1,72.82,97,4,1.99,clear sky,0.0,0.0
355,Pisco,PE,2020-02-24 01:42:45,-13.7,-76.22,75.2,78,75,10.29,broken clouds,0.0,0.0
356,Rudraprayag,IN,2020-02-24 01:42:45,30.28,78.98,46.6,43,6,0.94,clear sky,0.0,0.0
357,Mwene-Ditu,CD,2020-02-24 01:42:45,-7.0,23.45,67.06,96,100,3.85,overcast clouds,0.0,0.0
358,Sainte-Rose,GP,2020-02-24 01:42:46,16.33,-61.7,75.2,83,0,3.36,clear sky,0.0,0.0
359,Neokhorion,GR,2020-02-24 01:42:46,41.18,23.25,46.99,80,17,1.41,few clouds,0.0,0.0
360,Fort Beaufort,ZA,2020-02-24 01:42:46,-32.77,26.63,49.05,95,2,1.45,clear sky,0.0,0.0
361,Vytegra,RU,2020-02-24 01:42:46,61.01,36.45,32.43,97,99,7.07,light snow,0.0,0.03464566929133858
362,Bengkulu,ID,2020-02-24 01:42:46,-3.8,102.27,86.94,55,0,4.63,clear sky,0.0,0.0
363,Revda,RU,2020-02-24 01:42:47,56.8,59.93,19.4,92,100,8.95,overcast clouds,0.0,0.0
364,Marsabit,KE,2020-02-24 01:42:47,2.33,37.99,74.41,79,92,24.0,overcast clouds,0.0,0.0
365,Alcantara,BR,2020-02-24 01:42:47,-2.41,-44.41,78.8,94,67,4.7,broken clouds,0.0,0.0
366,Mishkino,RU,2020-02-24 01:42:47,55.34,63.92,8.82,95,14,10.83,few clouds,0.0,0.0
367,Dutlwe,BW,2020-02-24 01:42:48,-23.98,23.9,67.39,78,100,16.89,overcast clouds,0.0,0.0
368,Arak,IR,2020-02-24 01:42:48,34.09,49.69,35.96,84,95,5.35,overcast clouds,0.0,0.0
369,Porbandar,IN,2020-02-24 01:42:48,21.64,69.61,74.82,54,0,12.5,clear sky,0.0,0.0
370,Yashkul,RU,2020-02-24 01:42:48,46.17,45.34,39.6,80,100,10.16,overcast clouds,0.0,0.0
371,Palmas,BR,2020-02-24 01:38:06,-10.21,-48.36,74.07,93,100,2.08,overcast clouds,0.0,0.0
372,Santander,ES,2020-02-24 01:39:56,43.46,-3.8,48.99,100,90,2.24,mist,0.0,0.0
373,Pangnirtung,CA,2020-02-24 01:42:49,66.15,-65.71,-33.03,97,100,1.07,overcast clouds,0.0,0.0
374,Voznesenye,RU,2020-02-24 01:42:49,61.01,35.48,33.1,92,100,9.08,light snow,0.0,0.01968503937007874
375,Yazman,PK,2020-02-24 01:42:49,29.12,71.74,70.18,41,0,7.52,clear sky,0.0,0.0
376,Touros,BR,2020-02-24 01:42:49,-5.2,-35.46,80.6,83,40,5.82,scattered clouds,0.0,0.0
377,Taltal,CL,2020-02-24 01:42:50,-25.4,-70.48,59.9,91,0,2.1,clear sky,0.0,0.0
378,Lubao,PH,2020-02-24 01:42:50,14.92,120.55,82.99,83,75,9.17,broken clouds,0.0,0.0
379,Nosy Varika,MG,2020-02-24 01:42:50,-20.58,48.53,73.9,95,73,3.22,broken clouds,0.0,0.0
380,Belchatow,PL,2020-02-24 01:42:51,51.37,19.36,37.0,93,75,21.92,light rain,0.0,0.0
381,Shahpura,IN,2020-02-24 01:42:51,27.38,75.97,60.8,82,40,0.22,mist,0.0,0.0
382,Maragogi,BR,2020-02-24 01:42:51,-9.01,-35.22,81.88,78,66,12.08,light rain,0.007480314960629922,0.0
383,Trincomalee,LK,2020-02-24 01:42:51,8.57,81.23,78.08,83,98,5.82,light rain,0.007480314960629922,0.0
384,Sereflikochisar,TR,2020-02-24 01:42:52,38.94,33.54,39.4,84,61,3.11,broken clouds,0.0,0.0
385,Sambava,MG,2020-02-24 01:42:52,-14.27,50.17,73.33,98,100,0.69,overcast clouds,0.0,0.0
386,Krasnyy Yar,RU,2020-02-24 01:42:52,46.53,48.35,35.6,80,73,6.71,broken clouds,0.0,0.0
387,Bereda,ES,2020-02-24 01:42:52,43.27,-7.54,48.0,100,90,2.24,fog,0.0,0.0
388,Sadovyy,RU,2020-02-24 01:42:52,53.3,34.33,29.23,94,0,5.28,clear sky,0.0,0.0
389,Besancon,FR,2020-02-24 01:42:53,47.25,6.02,51.8,87,90,6.93,overcast clouds,0.0,0.0
390,Ajaccio,FR,2020-02-24 01:42:53,42.0,8.92,62.6,87,10,9.17,clear sky,0.0,0.0
391,Qaqortoq,GL,2020-02-24 01:42:53,60.72,-46.03,23.0,67,100,13.87,light snow,0.0,0.0515748031496063
392,Walvis Bay,NA,2020-02-24 01:42:53,-22.96,14.51,64.0,93,52,8.05,broken clouds,0.0,0.0
393,Carutapera,BR,2020-02-24 01:42:54,-1.2,-46.02,82.17,82,81,12.48,broken clouds,0.0,0.0
394,Katsina,NG,2020-02-24 01:42:54,12.99,7.6,67.06,17,0,15.3,clear sky,0.0,0.0
395,Corumba,BR,2020-02-24 01:42:54,-19.01,-57.65,65.17,92,5,1.61,clear sky,0.0,0.0
396,Terrace Bay,CA,2020-02-24 01:42:54,48.78,-87.1,27.34,91,92,8.95,overcast clouds,0.0,0.0
397,Oktyabrskiy,RU,2020-02-24 01:42:55,54.48,53.47,26.13,91,100,17.07,light snow,0.0,0.01732283464566929
398,Kibala,TD,2020-02-24 01:42:55,9.11,18.35,78.8,21,0,3.65,clear sky,0.0,0.0
399,Thompson,CA,2020-02-24 01:40:49,55.74,-97.86,14.0,78,90,8.05,light snow,0.0,0.0
400,Oriximina,BR,2020-02-24 01:42:55,-1.77,-55.87,77.94,84,32,3.29,scattered clouds,0.0,0.0
401,San Matias,BO,2020-02-24 01:42:56,-16.37,-58.4,68.5,96,11,2.48,few clouds,0.0,0.0
402,Cap Malheureux,MU,2020-02-24 01:42:56,-19.98,57.61,73.99,94,20,3.36,few clouds,0.0,0.0
403,Robat Karim,IR,2020-02-24 01:42:56,35.48,51.08,53.6,80,78,9.17,broken clouds,0.0,0.0
404,Lyuban,BY,2020-02-24 01:42:56,52.8,28.0,32.32,95,100,5.99,overcast clouds,0.0,0.0
405,Brekstad,NO,2020-02-24 01:42:56,63.69,9.67,33.8,86,75,34.45,light shower snow,0.0,0.0
406,Santa Helena De Goias,BR,2020-02-24 01:42:57,-17.81,-50.6,71.2,96,100,6.11,moderate rain,0.39133858267716537,0.0
407,Masallatah,LY,2020-02-24 01:42:57,32.62,14.0,48.69,85,8,8.99,clear sky,0.0,0.0
408,Grand Gaube,MU,2020-02-24 01:42:57,-20.01,57.66,73.99,94,20,3.36,few clouds,0.0,0.0
409,Novoagansk,RU,2020-02-24 01:42:57,61.94,76.66,22.35,93,100,13.89,light snow,0.0,0.00984251968503937
410,Kemin,KG,2020-02-24 01:42:57,42.78,75.69,31.75,69,100,1.32,overcast clouds,0.0,0.0
411,Roura,GF,2020-02-24 01:42:58,4.73,-52.33,80.6,78,75,8.05,broken clouds,0.0,0.0
412,Ulagan,RU,2020-02-24 01:42:58,50.63,87.96,9.59,94,100,0.45,light snow,0.0,0.007480314960629922
413,Pitimbu,BR,2020-02-24 01:42:58,-7.47,-34.81,82.4,78,20,10.29,few clouds,0.0,0.0
414,Acarau,BR,2020-02-24 01:42:59,-2.89,-40.12,75.42,96,4,3.02,clear sky,0.0,0.0
415,Aksu,CN,2020-02-24 01:42:59,41.12,80.26,40.46,42,100,0.96,overcast clouds,0.0,0.0
416,Joshimath,IN,2020-02-24 01:42:59,30.57,79.57,35.42,43,39,6.6,scattered clouds,0.0,0.0
417,Edgewater,US,2020-02-24 01:42:19,28.99,-80.9,66.99,87,1,3.96,clear sky,0.0,0.0
418,Desbiens,CA,2020-02-24 01:42:59,48.42,-71.95,28.0,73,20,3.36,few clouds,0.0,0.0
419,Maxixe,MZ,2020-02-24 01:43:00,-23.86,35.35,76.69,75,100,28.01,light rain,0.007480314960629922,0.0
420,Umm Lajj,SA,2020-02-24 01:43:00,25.02,37.27,58.8,49,100,5.91,overcast clouds,0.0,0.0
421,Yabelo,ET,2020-02-24 01:43:00,4.88,38.08,65.79,29,21,17.31,few clouds,0.0,0.0
422,Takoradi,GH,2020-02-24 01:43:00,4.88,-1.76,78.01,92,63,2.53,broken clouds,0.0,0.0
423,Deep River,CA,2020-02-24 01:43:01,46.1,-77.5,41.0,56,90,5.82,overcast clouds,0.0,0.0
424,Miandrivazo,MG,2020-02-24 01:43:01,-19.52,45.47,76.1,89,100,2.44,moderate rain,0.1795275590551181,0.0
425,Dire,ML,2020-02-24 01:43:01,12.28,-10.97,77.67,14,100,2.26,overcast clouds,0.0,0.0
426,Hobyo,SO,2020-02-24 01:43:01,5.35,48.53,76.26,76,96,12.68,overcast clouds,0.0,0.0
427,Alappuzha,IN,2020-02-24 01:41:38,9.49,76.33,80.55,63,100,2.06,overcast clouds,0.0,0.0
428,Fredericton,CA,2020-02-24 01:43:02,45.95,-66.67,32.0,80,1,5.82,clear sky,0.0,0.0
429,Kamyaran,IR,2020-02-24 01:43:02,34.8,46.94,39.2,69,100,3.67,overcast clouds,0.0,0.0
430,Opuwo,NA,2020-02-24 01:43:02,-18.06,13.84,66.47,36,5,7.29,clear sky,0.0,0.0
431,Santa Lucia,ES,2020-02-24 01:43:02,27.91,-15.54,75.0,46,77,4.7,broken clouds,0.0,0.0
432,Naryan-Mar,RU,2020-02-24 01:39:01,67.67,53.09,26.92,86,100,26.37,overcast clouds,0.0,0.0
433,Eyl,SO,2020-02-24 01:41:19,7.98,49.82,78.01,75,100,18.34,overcast clouds,0.0,0.0
434,Durusu,TR,2020-02-24 01:43:03,41.31,28.68,46.4,81,66,21.92,broken clouds,0.0,0.0
435,Nekhayevskiy,RU,2020-02-24 01:43:03,50.41,41.76,35.01,89,100,4.0,overcast clouds,0.0,0.0
436,Dawlatabad,AF,2020-02-24 01:43:03,36.41,64.91,50.85,85,47,1.59,scattered clouds,0.0,0.0
437,Esil,KZ,2020-02-24 01:43:04,51.96,66.4,7.02,95,23,7.52,few clouds,0.0,0.0
438,Bridlington,GB,2020-02-24 01:43:04,54.08,-0.19,41.0,80,100,5.82,light rain,0.005118110236220473,0.0
439,Millau,FR,2020-02-24 01:43:04,44.08,2.92,37.0,89,0,3.36,clear sky,0.0,0.0
440,Camabatela,AO,2020-02-24 01:43:05,-8.19,15.38,65.03,90,100,4.47,overcast clouds,0.0,0.0
441,Duda,RO,2020-02-24 01:43:05,46.75,28.04,48.2,57,75,5.82,light rain,0.0,0.0
442,Barahona,DO,2020-02-24 01:43:05,18.21,-71.1,77.04,76,22,4.23,light rain,0.061417322834645675,0.0
443,Tukrah,LY,2020-02-24 01:43:05,32.53,20.58,54.54,71,64,12.21,light rain,0.007480314960629922,0.0
444,Sakakah,SA,2020-02-24 01:43:05,29.97,40.21,55.4,37,100,10.29,overcast clouds,0.0,0.0
445,Marolambo,MG,2020-02-24 01:43:06,-20.05,48.12,66.38,97,34,2.21,scattered clouds,0.0,0.0
446,Lieksa,FI,2020-02-24 01:43:06,63.32,30.02,26.85,87,72,8.86,broken clouds,0.0,0.0
447,Andrid,RO,2020-02-24 01:43:06,47.52,22.35,48.2,66,100,21.92,light snow,0.0,0.0
448,Tougue,GN,2020-02-24 01:43:06,11.47,-11.6,78.01,16,100,2.3,overcast clouds,0.0,0.0
449,Santa Cruz De Tenerife,ES,2020-02-24 01:39:03,28.47,-16.25,73.99,48,40,23.04,haze,0.0,0.0
450,Mana,GF,2020-02-24 01:43:07,5.66,-53.78,75.31,88,76,3.33,broken clouds,0.0,0.0
451,Sistranda,NO,2020-02-24 01:43:07,63.73,8.83,33.8,86,75,34.45,light shower snow,0.0,0.0
452,Estrela,BR,2020-02-24 01:43:07,-28.06,-50.94,55.92,96,22,4.76,few clouds,0.0,0.0
453,Feijo,BR,2020-02-24 01:43:07,-8.16,-70.35,71.01,91,94,0.31,overcast clouds,0.0,0.0
454,Yar-Sale,RU,2020-02-24 01:43:07,66.83,70.83,27.12,87,100,24.65,overcast clouds,0.0,0.0
455,Galle,LK,2020-02-24 01:43:08,6.04,80.22,78.49,78,100,4.21,overcast clouds,0.0,0.0
456,Abapo,BO,2020-02-24 01:43:08,-18.83,-63.47,60.22,55,0,3.02,clear sky,0.0,0.0
457,Maravilha,BR,2020-02-24 01:43:08,-26.76,-53.17,66.0,93,22,2.73,few clouds,0.0,0.0
458,Pietrosita,RO,2020-02-24 01:43:08,45.18,25.43,46.99,64,82,15.99,broken clouds,0.0,0.0
459,Oshkosh,US,2020-02-24 01:38:40,44.02,-88.54,42.8,64,1,6.93,clear sky,0.0,0.0
460,Williamsburg,US,2020-02-24 01:42:28,37.27,-76.71,53.01,73,1,3.36,clear sky,0.0,0.0
461,Kristiinankaupunki,FI,2020-02-24 01:43:09,62.27,21.38,31.59,62,20,13.38,few clouds,0.0,0.0
462,Geisenheim,DE,2020-02-24 01:43:10,49.98,7.97,45.0,70,75,6.93,broken clouds,0.0,0.0
463,Mwinilunga,ZM,2020-02-24 01:43:10,-11.74,24.43,64.89,97,100,5.41,overcast clouds,0.0,0.0
464,Vilhena,BR,2020-02-24 01:43:10,-12.74,-60.15,69.44,99,100,1.52,overcast clouds,0.0,0.0
465,Mpika,ZM,2020-02-24 01:43:10,-11.83,31.45,63.75,96,100,3.44,light rain,0.03464566929133858,0.0
466,Tarnogskiy Gorodok,RU,2020-02-24 01:43:10,60.5,43.58,31.6,90,100,10.89,light snow,0.0,0.005118110236220473
467,Toamasina,MG,2020-02-24 01:43:11,-18.17,49.38,77.0,94,75,7.47,broken clouds,0.0,0.0
468,Santa Cruz,BO,2020-02-24 01:42:17,-17.8,-63.17,75.2,69,75,2.24,broken clouds,0.0,0.0
469,Itanhem,BR,2020-02-24 01:43:11,-17.17,-40.33,69.15,97,100,4.41,light rain,0.029527559055118113,0.0
470,San Ignacio,BZ,2020-02-24 01:43:12,17.16,-89.07,75.2,69,2,3.49,clear sky,0.0,0.0
471,General Pico,AR,2020-02-24 01:38:23,-35.66,-63.76,69.51,34,0,13.91,clear sky,0.0,0.0
472,The Valley,AI,2020-02-24 01:42:36,18.22,-63.06,78.8,69,20,2.24,few clouds,0.0,0.0
473,Deder,ET,2020-02-24 01:43:12,9.32,41.45,61.7,67,77,1.41,broken clouds,0.0,0.0
474,Tabas,IR,2020-02-24 01:43:13,33.6,56.92,50.0,38,44,4.7,scattered clouds,0.0,0.0
475,San Andres,CO,2020-02-24 01:42:51,12.58,-81.7,77.0,83,75,11.41,broken clouds,0.0,0.0
476,Turukhansk,RU,2020-02-24 01:43:13,65.82,87.98,14.86,94,100,14.07,light snow,0.0,0.00984251968503937
477,Roald,NO,2020-02-24 01:43:13,62.58,6.13,37.4,55,100,13.87,light snow,0.0,0.01732283464566929
478,Marsa Matruh,EG,2020-02-24 01:43:13,31.35,27.25,56.86,72,11,17.81,light rain,0.00984251968503937,0.0
479,Taoudenni,ML,2020-02-24 01:43:14,22.68,-3.98,69.91,13,0,15.35,clear sky,0.0,0.0
480,Cururupu,BR,2020-02-24 01:43:14,-1.83,-44.87,73.9,98,57,1.86,broken clouds,0.0,0.0
481,Caranavi,BO,2020-02-24 01:43:14,-15.82,-67.55,59.99,95,100,1.54,overcast clouds,0.0,0.0
482,Wer,IN,2020-02-24 01:43:14,27.0,77.17,64.54,65,0,4.0,clear sky,0.0,0.0
483,Tornio,FI,2020-02-24 01:43:15,65.85,24.13,19.4,92,3,4.7,clear sky,0.0,0.0
484,Marsh Harbour,BS,2020-02-24 01:43:15,26.54,-77.06,68.29,55,1,12.95,clear sky,0.0,0.0
485,Ambilobe,MG,2020-02-24 01:43:15,-13.2,49.05,76.32,92,100,2.55,light rain,0.01968503937007874,0.0
486,Aswan,EG,2020-02-24 01:43:15,24.09,32.91,52.81,41,100,6.46,overcast clouds,0.0,0.0
487,Lichinga,MZ,2020-02-24 01:40:31,-13.31,35.24,70.63,92,100,3.06,light rain,0.08110236220472442,0.0
488,Mandiana,GN,2020-02-24 01:39:45,10.63,-8.68,74.91,18,31,3.42,scattered clouds,0.0,0.0
489,Westerland,DE,2020-02-24 01:43:16,54.91,8.3,42.01,88,33,10.0,scattered clouds,0.0,0.0
490,Tyup,KG,2020-02-24 01:43:16,42.73,78.36,26.64,60,100,2.21,overcast clouds,0.0,0.0
491,Koutiala,ML,2020-02-24 01:43:16,12.39,-5.46,79.41,11,87,11.05,overcast clouds,0.0,0.0
492,Bodden Town,KY,2020-02-24 01:42:59,19.28,-81.25,78.8,78,20,9.17,few clouds,0.0,0.0
493,Sao Joao Batista,BR,2020-02-24 01:43:17,-27.28,-48.85,75.2,60,40,9.17,scattered clouds,0.0,0.0
494,Aligudarz,IR,2020-02-24 01:43:17,33.4,49.69,36.12,88,84,2.04,light rain,0.007480314960629922,0.0
495,Zlobin,HR,2020-02-24 01:43:17,45.29,14.65,52.0,81,20,4.7,few clouds,0.0,0.0
496,Nanga Eboko,CM,2020-02-24 01:43:17,4.68,12.37,68.49,99,100,2.57,overcast clouds,0.0,0.0
497,Chokwe,MZ,2020-02-24 01:43:17,-24.53,32.98,68.9,77,89,8.39,light rain,0.005118110236220473,0.0
498,Orcopampa,PE,2020-02-24 01:43:18,-15.27,-72.34,36.46,95,100,1.7,light rain,0.08385826771653543,0.0
499,Miram Shah,PK,2020-02-24 01:43:18,33.01,70.07,52.92,54,0,4.36,clear sky,0.0,0.0
500,Vavozh,RU,2020-02-24 01:43:18,56.78,51.93,25.65,94,100,12.8,light snow,0.0,0.05669291338582677
501,Quatre Cocos,MU,2020-02-24 01:43:18,-20.21,57.76,73.99,94,20,3.36,few clouds,0.0,0.0
502,Assen,NL,2020-02-24 01:43:19,53.0,6.56,43.0,86,90,9.17,overcast clouds,0.0,0.0
503,Puerto Escondido,MX,2020-02-24 01:43:19,15.85,-97.07,82.4,83,40,8.05,scattered clouds,0.0,0.0
504,Binga,ZW,2020-02-24 01:43:19,-17.62,27.34,75.6,82,100,14.97,moderate rain,0.2066929133858268,0.0
505,Benton Harbor,US,2020-02-24 01:43:19,42.12,-86.45,48.2,61,1,9.17,clear sky,0.0,0.0
506,Rognan,NO,2020-02-24 01:43:20,67.1,15.39,34.0,91,75,34.45,shower rain,0.0,0.0
507,Salcininkai,LT,2020-02-24 01:43:20,54.3,25.38,35.01,91,75,6.93,broken clouds,0.0,0.0
508,Plouzane,FR,2020-02-24 01:43:20,48.38,-4.62,51.8,100,90,20.8,light intensity drizzle,0.0,0.0
509,Benguela,AO,2020-02-24 01:43:20,-12.58,13.41,77.94,81,81,3.31,broken clouds,0.0,0.0
510,Sisimiut,GL,2020-02-24 01:43:20,66.94,-53.67,-6.5,93,71,3.24,broken clouds,0.0,0.0
511,Dilla,ET,2020-02-24 01:43:21,6.41,38.31,50.63,54,43,5.08,scattered clouds,0.0,0.0
512,Salamiyah,SY,2020-02-24 01:43:21,35.01,37.05,48.79,70,90,4.25,overcast clouds,0.0,0.0
513,Sinnamary,GF,2020-02-24 01:43:21,5.38,-52.95,78.75,82,97,16.08,light rain,0.005118110236220473,0.0
514,Birin,NP,2020-02-24 01:43:21,26.89,88.07,54.79,57,0,2.98,clear sky,0.0,0.0
515,Morganton,US,2020-02-24 01:39:13,35.75,-81.68,53.6,32,1,4.7,clear sky,0.0,0.0
516,Ebebiyin,GQ,2020-02-24 01:43:22,2.15,11.34,71.71,92,92,4.85,overcast clouds,0.0,0.0
517,Apatou,GF,2020-02-24 01:43:22,5.16,-54.35,71.42,98,56,2.39,broken clouds,0.0,0.0
518,Paita,PE,2020-02-24 01:43:22,-5.09,-81.11,78.84,67,92,10.54,overcast clouds,0.0,0.0
519,Sao Caetano De Odivelas,BR,2020-02-24 01:43:22,-0.75,-48.02,74.44,98,38,2.17,scattered clouds,0.0,0.0
520,Port-Cartier,CA,2020-02-24 01:43:23,50.03,-66.87,28.4,86,75,4.7,broken clouds,0.0,0.0
521,Sabha,LY,2020-02-24 01:43:23,27.04,14.43,46.62,68,0,5.08,clear sky,0.0,0.0
522,Wana,PK,2020-02-24 01:43:23,32.3,69.57,39.45,64,0,1.99,clear sky,0.0,0.0
523,Sompeta,IN,2020-02-24 01:43:23,18.93,84.6,77.16,49,0,3.58,clear sky,0.0,0.0
524,Tessaoua,NE,2020-02-24 01:43:23,13.76,7.99,67.77,17,0,14.47,clear sky,0.0,0.0
525,Urumqi,CN,2020-02-24 01:42:09,43.8,87.6,30.2,86,97,2.24,mist,0.0,0.0
526,Correntina,BR,2020-02-24 01:43:24,-13.34,-44.64,70.77,87,36,0.13,scattered clouds,0.0,0.0
527,Liverpool,GB,2020-02-24 01:43:24,53.41,-2.98,41.0,80,75,14.99,light rain,0.0,0.0
528,Bobrovka,RU,2020-02-24 01:43:24,54.05,61.75,14.63,93,100,12.82,overcast clouds,0.0,0.0
529,Korla,CN,2020-02-24 01:43:24,41.76,86.15,44.01,77,51,1.01,broken clouds,0.0,0.0
530,Waynesboro,US,2020-02-24 01:43:25,38.07,-78.89,46.4,24,90,3.36,overcast clouds,0.0,0.0
531,High Rock,BS,2020-02-24 01:43:25,26.62,-78.28,69.01,58,29,14.05,scattered clouds,0.0,0.0
532,Cervo,ES,2020-02-24 01:43:25,43.67,-7.41,48.0,1,0,3.74,clear sky,0.0,0.0
533,Kasur,PK,2020-02-24 01:43:25,31.12,74.45,53.6,81,49,3.0,smoke,0.0,0.0
534,Otjiwarongo,NA,2020-02-24 01:43:25,-20.46,16.65,65.35,87,76,6.06,light rain,0.00984251968503937,0.0
535,Komatipoort,ZA,2020-02-24 01:43:26,-25.43,31.95,66.99,78,83,1.99,broken clouds,0.0,0.0
536,Rundu,NA,2020-02-24 01:43:26,-17.93,19.77,68.0,92,84,5.88,light rain,0.11338582677165354,0.0
537,Barra Do Garcas,BR,2020-02-24 01:43:26,-15.89,-52.26,72.61,95,100,1.77,moderate rain,0.16968503937007873,0.0
538,Sabnova,RU,2020-02-24 01:43:26,42.08,48.25,43.68,76,1,1.41,clear sky,0.0,0.0
539,Grand-Santi,GF,2020-02-24 01:43:27,4.25,-54.38,72.91,98,45,4.27,scattered clouds,0.0,0.0
540,Eschwege,DE,2020-02-24 01:43:27,51.18,10.07,39.99,74,20,18.34,few clouds,0.0,0.0
541,Shache,CN,2020-02-24 01:43:27,38.42,77.24,39.0,51,94,3.31,overcast clouds,0.0,0.0
542,Klaebu,NO,2020-02-24 01:43:27,63.3,10.48,33.8,86,75,16.11,light snow,0.0,0.0
543,Dhule,IN,2020-02-24 01:43:27,20.9,74.78,73.49,27,22,4.9,few clouds,0.0,0.0
544,Manaure,CO,2020-02-24 01:43:28,11.78,-72.44,76.42,88,9,14.14,clear sky,0.0,0.0
545,Emet,TR,2020-02-24 01:43:28,39.34,29.26,32.63,84,6,2.24,clear sky,0.0,0.0
546,Emborion,GR,2020-02-24 01:43:28,40.48,21.55,44.01,48,30,4.7,scattered clouds,0.0,0.0
547,Nushki,PK,2020-02-24 01:43:28,29.55,66.02,59.67,38,0,5.66,clear sky,0.0,0.0
548,Sept-Iles,CA,2020-02-24 01:43:28,50.2,-66.38,28.4,86,75,4.7,broken clouds,0.0,0.0
549,Kathmandu,NP,2020-02-24 01:43:29,27.72,85.32,44.6,100,20,3.36,mist,0.0,0.0
550,Svetlyy,RU,2020-02-24 01:43:29,54.67,20.13,41.0,86,75,17.9,broken clouds,0.0,0.0
551,Ochakiv,UA,2020-02-24 01:43:29,46.61,31.55,41.0,93,20,8.95,few clouds,0.0,0.0
552,Ponta Delgada,PT,2020-02-24 01:43:29,37.73,-25.67,55.4,93,20,4.7,few clouds,0.0,0.0
553,Robertsport,LR,2020-02-24 01:43:30,6.75,-11.37,82.72,86,100,11.9,light rain,0.005118110236220473,0.0
554,Carbonia,IT,2020-02-24 01:43:30,39.17,8.52,50.0,87,5,4.7,clear sky,0.0,0.0
555,Aleppo,SY,2020-02-24 01:43:30,36.25,37.5,48.11,85,62,7.87,broken clouds,0.0,0.0
556,Rawson,AR,2020-02-24 01:43:30,-43.3,-65.1,61.7,85,16,9.35,few clouds,0.0,0.0
557,Namwala,ZM,2020-02-24 01:43:30,-15.75,26.44,68.59,97,100,2.59,moderate rain,0.3003937007874016,0.0
558,Ponazyrevo,RU,2020-02-24 01:43:31,58.36,46.31,29.52,93,98,8.23,light snow,0.0,0.005118110236220473
559,Neuquen,AR,2020-02-24 01:40:22,-38.95,-68.06,80.6,26,0,17.22,clear sky,0.0,0.0
560,Itaituba,BR,2020-02-24 01:40:30,-4.28,-55.98,72.09,93,100,2.57,overcast clouds,0.0,0.0
561,Waupun,US,2020-02-24 01:43:31,43.63,-88.73,41.0,74,1,4.7,clear sky,0.0,0.0
562,Afua,BR,2020-02-24 01:43:31,-0.16,-50.39,77.25,92,85,5.84,light rain,0.007480314960629922,0.0
563,Hauterive,FR,2020-02-24 01:43:32,46.09,3.45,48.2,70,72,4.7,broken clouds,0.0,0.0
564,Sharjah,AE,2020-02-24 01:43:32,25.36,55.4,73.4,100,97,3.36,mist,0.0,0.0
565,Tarauaca,BR,2020-02-24 01:43:32,-8.16,-70.77,71.2,89,95,1.07,overcast clouds,0.0,0.0
566,Usinsk,RU,2020-02-24 01:40:38,65.99,57.53,27.05,92,100,26.22,light snow,0.0,0.00984251968503937
567,Puerto Colombia,CO,2020-02-24 01:42:22,10.99,-74.95,77.0,83,40,12.75,scattered clouds,0.0,0.0
568,Mogadishu,SO,2020-02-24 01:43:33,2.04,45.34,79.95,81,80,23.78,broken clouds,0.0,0.0
569,Praia,CV,2020-02-24 01:43:33,14.92,-23.51,68.0,77,20,8.05,few clouds,0.0,0.0
570,Niquelandia,BR,2020-02-24 01:43:29,-14.47,-48.46,71.06,90,100,0.49,overcast clouds,0.0,0.0
571,Carnarvon,AU,2020-02-24 01:43:34,-24.87,113.63,80.6,54,0,5.82,clear sky,0.0,0.0
572,Mussomeli,IT,2020-02-24 01:43:34,37.58,13.75,52.0,38,0,5.06,clear sky,0.0,0.0
573,Bressanone,IT,2020-02-24 01:43:34,46.72,11.66,41.0,76,28,1.01,scattered clouds,0.0,0.0
574,Puerto Quijarro,BO,2020-02-24 01:43:34,-17.78,-57.77,65.26,98,0,0.49,clear sky,0.0,0.0
575,Jalu,LY,2020-02-24 01:42:03,29.03,21.55,50.36,71,53,8.46,broken clouds,0.0,0.0
576,Kondinskoye,RU,2020-02-24 01:43:35,59.65,67.41,20.41,94,88,11.59,overcast clouds,0.0,0.0
577,Lesnoy,RU,2020-02-24 01:43:35,57.62,63.08,14.65,90,0,13.62,clear sky,0.0,0.0
578,Komsomolets,KZ,2020-02-24 01:43:35,53.75,62.07,12.63,94,100,12.37,overcast clouds,0.0,0.0
579,Nazca,PE,2020-02-24 01:43:35,-14.83,-74.95,73.0,75,100,3.47,overcast clouds,0.0,0.0
580,Ouadda,CF,2020-02-24 01:43:36,8.08,22.4,67.32,16,98,4.81,overcast clouds,0.0,0.0
581,Lively,CA,2020-02-24 01:43:36,46.43,-81.15,32.0,94,75,14.99,broken clouds,0.0,0.0
582,Serenje,ZM,2020-02-24 01:43:36,-13.23,30.24,64.31,98,100,1.1,light rain,0.07401574803149606,0.0
583,Bondoukou,CI,2020-02-24 01:43:36,8.03,-2.8,74.12,31,0,2.62,clear sky,0.0,0.0
584,Bundi,IN,2020-02-24 01:43:36,25.44,75.64,64.58,53,0,2.21,clear sky,0.0,0.0
585,La Asuncion,VE,2020-02-24 01:43:37,11.03,-63.86,80.6,83,28,13.87,scattered clouds,0.0,0.0
586,Puerto Narino,CO,2020-02-24 01:43:37,-3.77,-70.38,78.8,94,75,8.05,broken clouds,0.0,0.0
587,Camocim,BR,2020-02-24 01:43:37,-2.9,-40.84,73.58,97,37,3.6,scattered clouds,0.0,0.0
588,Thessalon,CA,2020-02-24 01:43:37,46.25,-83.57,37.4,74,1,10.51,clear sky,0.0,0.0
589,Nioro,GM,2020-02-24 01:43:38,13.35,-15.75,83.39,28,99,7.94,overcast clouds,0.0,0.0
590,Carballo,ES,2020-02-24 01:43:38,43.21,-8.69,54.0,100,90,2.24,fog,0.0,0.0
591,Garowe,SO,2020-02-24 01:43:38,8.41,48.48,63.61,91,100,5.93,overcast clouds,0.0,0.0
592,Omaruru,NA,2020-02-24 01:43:38,-21.43,15.93,67.42,78,72,2.3,broken clouds,0.0,0.0
593,Morondava,MG,2020-02-24 01:43:39,-20.28,44.28,74.17,96,43,3.11,light rain,0.02716535433070866,0.0
594,Seredeyskiy,RU,2020-02-24 01:43:39,54.05,35.23,28.83,93,0,7.16,clear sky,0.0,0.0
595,Morros,BR,2020-02-24 01:42:26,-9.45,-46.3,74.39,87,99,2.21,overcast clouds,0.0,0.0
596,Olden,NO,2020-02-24 01:43:39,61.84,6.81,34.0,93,100,5.32,light snow,0.0,0.014960629921259844
597,Atar,MR,2020-02-24 01:43:39,20.52,-13.05,77.45,19,93,9.24,overcast clouds,0.0,0.0
598,Sechura,PE,2020-02-24 01:43:40,-5.56,-80.82,75.85,80,86,8.01,overcast clouds,0.0,0.0
599,El Cope,PA,2020-02-24 01:43:40,8.62,-80.6,73.99,42,8,13.04,clear sky,0.0,0.0
600,Maniitsoq,GL,2020-02-24 01:43:40,65.42,-52.9,10.38,61,34,8.5,scattered clouds,0.0,0.0
601,Buzmeyin,TM,2020-02-24 01:43:40,38.05,58.21,42.8,100,0,3.06,mist,0.0,0.0
602,Camacha,PT,2020-02-24 01:43:40,33.08,-16.33,66.2,82,20,12.75,few clouds,0.0,0.0
603,Inirida,CO,2020-02-24 01:43:41,3.87,-67.92,76.14,92,24,3.13,few clouds,0.0,0.0
